City_ID,City,Lat,Lng,Max Temp,Humidity,Cloudiness,Wind Speed,Country,Date
0,westport,41.1415,-73.3579,17.31,56,0,5.14,US,1728644457
1,grytviken,-54.2811,-36.5092,2.27,84,15,3.78,GS,1728631565
2,puerto natales,-51.7236,-72.4875,10.25,57,75,6.69,CL,1728640425
3,port mathurin,-19.6833,63.4167,22.33,73,88,11.5,MU,1728609544
4,port-aux-francais,-49.35,70.2167,-0.11,88,94,25.19,TF,1728606424
5,adamstown,-25.066,-130.1015,21.06,88,19,6.21,PN,1728655760
6,edinburgh of the seven seas,-37.0676,-12.3116,9.85,72,75,12.48,SH,1728626977
7,tromso,69.6496,18.957,4.01,81,75,5.66,NO,1728625184
8,presidente epitacio,-21.7633,-52.1156,31.58,47,91,4.45,BR,1728637181
9,invercargill,-46.4,168.35,4.55,91,44,2.81,NZ,1728669406
10,puerto ayora,-0.7393,-90.3518,21.97,85,90,2.24,EC,1728647046
11,kodiak,57.79,-152.4072,7.73,87,100,18.52,US,1728664609
12,stanley,54.868,-1.6985,10.71,67,20,4.63,GB,1728628119
13,shahba,32.8551,36.629,22.11,42,48,3.72,SY,1728617675
14,northam,51.0333,-4.2167,12.56,71,54,3.81,GB,1728628431
15,taulaga,-11.0553,-171.0883,27.3,80,63,7.74,AS,1728666091
16,sitka,57.0531,-135.33,7.94,87,75,0.0,US,1728660432
17,ilulissat,69.2167,-51.1,0.01,47,0,2.57,GL,1728641945
18,albany,42.6001,-73.9662,15.88,60,3,1.34,US,1728644678
19,cole harbour,44.6724,-63.4751,13.17,66,89,8.75,CA,1728642270
20,remire-montjoly,4.9167,-52.2667,33.02,62,20,6.17,GF,1728638080
21,east london,-33.0153,27.9116,18.52,72,0,2.57,ZA,1728617529
22,wailua homesteads,22.0669,-159.378,22.44,96,100,2.06,US,1728664336
23,yeed,4.55,43.0333,32.65,30,73,5.92,SO,1728615199
24,hermanus,-34.4187,19.2345,18.22,78,87,2.57,ZA,1728619544
25,mount pearl,47.5166,-52.7813,13.58,70,40,7.2,CA,1728639868
26,waitangi,-43.9535,-176.5597,8.23,81,100,3.7,NZ,1728752252
27,arawa,-6.2132,155.5367,24.69,91,100,1.29,PG,1728674255
28,nar'yan-mar,67.6713,53.087,-0.63,59,100,11.46,RU,1728616552
29,coreau,-3.5333,-40.6567,37.28,25,57,3.61,BR,1728635036
30,hithadhoo,-0.6,73.0833,27.82,77,39,6.05,MV,1728607834
31,saint-joseph,-21.3667,55.6167,21.21,74,70,6.86,RE,1728611355
32,kuqa,41.7278,82.9364,18.35,30,14,0.82,CN,1728693414
33,ushuaia,-54.8,-68.3,7.81,61,20,1.54,AR,1728639129
34,leninskoye,41.7589,69.3864,15.68,67,100,2.51,KZ,1728610203
35,pundong,-7.9522,110.3486,25.73,88,78,1.12,ID,1728598670
36,selfoss,63.9331,-20.9971,1.69,47,53,4.01,IS,1728633750
37,hadibu,12.65,54.0333,26.58,74,51,2.05,YE,1728612804
38,papatowai,-46.5619,169.4708,6.99,89,60,2.51,NZ,1728669126
39,porvoo,60.3923,25.6651,11.86,84,100,5.76,FI,1728622078
40,inhambane,-23.865,35.3833,24.99,78,20,3.09,MZ,1728616116
41,olot,42.181,2.4901,18.43,57,53,1.79,ES,1728626292
42,sao joao da barra,-21.6403,-41.0511,24.05,88,97,9.29,BR,1728634532
43,road town,18.4167,-64.6167,31.02,66,20,2.57,VG,1728641465
44,ghadamis,30.1337,9.5007,38.66,13,39,4.08,LY,1728624082
45,tiksi,71.6872,128.8694,-9.44,94,100,2.71,RU,1728685926
46,hawaiian paradise park,19.5933,-154.9731,21.61,94,100,1.54,US,1728663194
47,warman,52.3168,-106.5679,3.95,87,75,1.54,CA,1728653117
48,aguas belas,-9.1114,-37.1231,34.62,18,83,5.96,BR,1728634015
49,aykhal,66.0,111.5,-11.95,97,98,3.51,RU,1728688799
50,noumea,-22.2763,166.4572,19.53,70,84,5.32,NC,1728671084
51,zheleznogorsk,52.331,35.3711,14.94,67,13,3.75,RU,1728619012
52,enewetak,11.3474,162.3373,28.89,76,94,7.07,MH,1728673173
53,bredasdorp,-34.5322,20.0403,18.51,63,63,3.27,ZA,1728619346
54,margaret river,-33.95,115.0667,14.68,88,86,5.17,AU,1728682910
55,the hammocks,25.6715,-80.4445,28.9,85,32,0.89,US,1728645513
56,licata,37.1071,13.9461,22.86,59,75,10.18,IT,1728623300
57,qaqortoq,60.7167,-46.0333,4.4,54,100,1.62,GL,1728639353
58,casablanca,33.5928,-7.6192,25.19,73,0,4.12,MA,1728628329
59,nuku'alofa,-21.1333,-175.2,24.19,100,75,5.14,TO,1728753076
60,kailua-kona,19.6406,-155.9956,24.98,74,0,3.09,US,1728663441
61,harnoli,32.2792,71.5539,29.56,18,0,1.84,PK,1728609266
62,susuman,62.7833,148.1667,-8.01,96,100,1.17,RU,1728679480
63,taksimo,56.3444,114.8794,-3.95,72,44,1.43,RU,1728686753
64,duquesne,40.3815,-79.8598,16.91,57,0,3.09,US,1728645981
65,aitape,-3.1374,142.3475,26.18,87,38,2.68,PG,1728677518
66,ulan bator,47.9077,106.8832,0.07,69,0,0.0,MN,1728688021
67,udachny,66.4167,112.4,-10.55,97,99,2.18,RU,1728688657
68,at taj,24.2049,23.2857,31.0,12,0,4.13,LY,1728620558
69,fort st. john,56.2499,-120.8529,3.94,70,20,5.14,CA,1728656877
70,talnakh,69.4865,88.3972,-11.24,90,66,2.26,RU,1728608434
71,thompson,55.7435,-97.8558,5.09,81,20,2.57,CA,1728651304
72,iqaluit,63.7506,-68.5145,1.85,87,100,1.54,CA,1728645151
73,la'ie,21.6477,-157.9253,23.39,89,99,0.45,US,1728663972
74,georgetown,5.4112,100.3354,27.96,74,20,2.06,MY,1728687866
75,solnechnyy,50.7214,136.6319,3.62,77,100,2.15,RU,1728681065
76,tucuma,-0.1833,-50.05,32.87,52,55,3.83,BR,1728637393
77,villa regina,-39.1,-67.0667,19.99,20,70,1.79,AR,1728639998
78,antsiranana,-12.2787,49.2917,24.73,69,2,8.92,MG,1728613182
79,tazovsky,67.4667,78.7,-2.62,90,100,4.68,RU,1728610351
80,puerto baquerizo moreno,-0.9,-89.6,20.55,94,100,5.14,EC,1728646861
81,blackmans bay,-43.0167,147.3167,8.18,72,52,5.13,AU,1728674676
82,bethel,41.3712,-73.414,17.23,53,0,4.63,US,1728644482
83,brookings,44.3114,-96.7984,15.81,68,0,6.69,US,1728650254
84,campbellton,48.0075,-66.6727,10.25,54,82,6.68,CA,1728643235
85,port antonio,18.18,-76.4612,29.29,76,56,2.06,JM,1728644301
86,bilibino,68.0546,166.4372,-17.91,97,88,1.45,RU,1728675975
87,laguna,38.421,-121.4238,17.91,70,0,2.57,US,1728655870
88,mo i rana,66.3128,14.1428,3.51,92,75,1.03,NO,1728625674
89,chanute,37.6792,-95.4572,26.06,38,0,4.63,US,1728649599
90,gorontalo,0.5412,123.0595,24.32,98,95,0.84,ID,1728682261
91,keflavik,64.0049,-22.5624,1.24,55,40,4.63,IS,1728634137
92,energetik,51.7445,58.7934,-1.29,77,99,8.13,RU,1728613341
93,mathba,22.2855,89.9629,25.78,92,3,1.63,BD,1728604486
94,longyearbyen,78.2186,15.6401,4.91,70,75,10.8,SJ,1728629537
95,stronie slaskie,50.2955,16.874,7.25,84,100,1.54,PL,1728623312
96,lihue,21.9789,-159.3672,22.77,100,100,2.06,US,1728664330
97,whitehorse,60.7161,-135.0538,-0.57,86,20,5.66,CA,1728660755
98,san luis de la loma,17.2706,-100.8939,27.82,75,40,0.6,MX,1728650136
99,kruisfontein,-34.0033,24.7314,16.81,68,100,3.05,ZA,1728618246
100,west island,-12.1568,96.8225,26.99,83,75,7.72,CC,1728601783
101,utrik,11.2278,169.8474,27.29,83,99,9.23,MH,1728671367
102,kirakira,-10.4544,161.9205,25.98,84,99,1.62,SB,1728672587
103,bilgram,27.1833,80.0333,26.19,40,80,1.77,IN,1728607039
104,parkes,-33.1333,148.1833,11.31,54,28,2.81,AU,1728675008
105,nizhniy ingash,56.2,96.53,-4.52,60,52,2.17,RU,1728604626
106,pitimbu,-7.4706,-34.8086,27.49,62,96,6.47,BR,1728633511
107,saldanha,-33.0117,17.9442,16.16,79,72,5.68,ZA,1728619919
108,namibe,-15.1961,12.1522,21.85,80,20,5.53,AO,1728621995
109,leh,34.1667,77.5833,4.84,23,0,1.02,IN,1728607893
110,afaahiti,-17.75,-149.2833,22.68,81,100,4.93,PF,1728660633
111,gongju,36.4556,127.1247,14.48,84,0,0.75,KR,1728682545
112,petropavlovsk-kamchatsky,53.0452,158.6483,4.33,65,75,6.0,RU,1728675950
113,wanning,18.8003,110.3967,25.67,84,49,2.77,CN,1728685883
114,lata,40.1629,-8.3327,19.72,47,100,3.36,PT,1728628792
115,harnai,30.1005,67.9374,24.21,19,0,0.27,PK,1728610050
116,st. john's,47.5649,-52.7093,14.04,68,40,7.2,CA,1728639853
117,badger,64.8,-147.5333,-1.07,90,100,0.0,US,1728664313
118,betio village,1.358,172.9211,27.02,68,52,5.22,KI,1728670322
119,saint-francois,46.4154,3.9054,15.69,62,0,2.06,FR,1728626184
120,n'zeto,-7.2312,12.8666,26.54,75,5,5.8,AO,1728622080
121,aasiaat,68.7098,-52.8699,-2.48,62,9,5.87,GL,1728642259
122,tari,-11.1105,14.3559,25.81,58,46,2.59,AO,1728621600
123,klyuchi,52.2667,79.1667,5.31,37,100,9.78,RU,1728608484
124,shrigonda,18.6167,74.6833,26.5,70,97,3.07,IN,1728608034
125,boyolangu,-8.1181,111.8935,25.03,90,83,1.55,ID,1728598294
126,jawhar,2.7809,45.5005,26.19,74,16,7.97,SO,1728614554
127,ust'-ilimsk,58.0006,102.6619,-6.95,91,13,1.17,RU,1728689852
128,san pedro,14.35,121.0167,27.57,95,20,1.54,PH,1728683187
129,jasidih,24.5167,86.65,25.18,67,3,2.12,IN,1728605357
130,dharamsala,32.2419,76.3213,13.77,59,0,3.18,IN,1728608119
131,port alfred,-33.5906,26.891,17.32,86,88,3.58,ZA,1728617747
132,north bend,43.4065,-124.2243,12.31,100,75,2.57,US,1728656793
133,juan griego,11.0817,-63.9655,32.07,62,55,7.2,VE,1728641076
134,portland,45.5234,-122.6762,13.99,83,100,3.13,US,1728656539
135,marat,25.0701,45.4615,31.34,11,11,4.11,SA,1728615264
136,calvi,42.5,8.8333,17.35,45,0,7.2,FR,1728624785
137,xishan,27.6667,113.5,20.28,54,71,1.55,CN,1728685454
138,morehead city,34.7229,-76.726,21.0,63,20,4.12,US,1728644971
139,zhigalovo,54.8097,105.1578,-4.56,70,10,0.54,RU,1728688951
140,kittila,67.6647,24.8936,3.08,93,75,5.14,FI,1728623334
141,santa elena de uairen,4.6167,-61.1333,28.74,47,100,3.77,VE,1728640199
142,obock,12.25,43.0833,26.42,61,0,2.83,DJ,1728615420
143,netivot,31.4222,34.5886,23.74,64,5,3.8,IL,1728618108
144,luganville,-15.5333,167.1667,24.7,84,92,4.16,VU,1728671157
145,bonga,7.2833,36.2333,16.56,98,79,0.78,ET,1728616913
146,atafu village,-8.5421,-172.5159,27.81,77,43,6.67,TK,1728752887
147,uturoa,-16.7333,-151.4333,25.32,75,34,6.81,PF,1728661184
148,libreville,0.3925,9.4537,26.82,80,76,4.39,GA,1728623132
149,minas de marcona,-15.2119,-75.1103,18.85,52,59,6.53,PE,1728642928
150,cabo san lucas,22.8909,-109.9124,29.86,83,20,1.79,MX,1728652489
151,bubaque,11.2833,-15.8333,27.31,75,100,3.16,GW,1728629530
152,mournies,35.4764,24.0092,37.04,78,20,1.54,GR,1728620813
153,kharkhorin,47.1975,102.8238,8.19,44,4,3.54,MN,1728688951
154,puerto deseado,-47.7503,-65.8938,13.0,30,11,6.11,AR,1728639167
155,olonkinbyen,70.9221,-8.7187,-2.9,89,100,17.67,SJ,1728632162
156,hasaki,35.7333,140.8333,20.61,69,93,3.9,JP,1728679220
157,tobelo,1.7284,128.0095,27.57,80,64,2.04,ID,1728681110
158,nuuk,64.1835,-51.7216,-0.66,93,5,1.54,GL,1728641176
159,sumbe,-11.2061,13.8437,26.23,75,20,4.59,AO,1728621720
160,ust-nera,64.5667,143.2,-8.82,96,100,2.65,RU,1728680936
161,al jawf,29.5,38.75,27.63,19,0,3.91,SA,1728617035
162,suva,-18.1416,178.4415,21.71,100,75,0.0,FJ,1728668361
163,isafjordur,66.0755,-23.124,1.02,64,75,3.09,IS,1728634598
164,furmanov,57.2508,41.1058,5.35,73,98,6.32,RU,1728618043
165,hulyaypole,47.6653,36.2578,17.57,57,68,3.8,UA,1728618486
166,marica,-22.9194,-42.8186,26.94,68,85,3.66,BR,1728634908
167,al jahra',29.3375,47.6581,30.32,33,0,3.82,KW,1728614891
168,fort bragg,35.139,-79.006,19.39,47,0,3.13,US,1728645536
169,avarua,-21.2078,-159.775,22.03,73,40,4.63,CK,1728663024
170,qionghu,28.843,112.3522,24.07,29,99,3.23,CN,1728685774
171,new norfolk,-42.7826,147.0587,8.84,72,59,1.92,AU,1728674753
172,tolanaro,-25.0319,46.9987,23.04,83,20,9.77,MG,1728613286
173,sangin,32.0728,64.8359,23.96,14,0,2.97,AF,1728610871
174,tralee,52.2704,-9.7026,13.14,50,0,0.0,IE,1728629838
175,charters towers,-20.1,146.2667,20.11,80,71,5.69,AU,1728676008
176,college,64.8569,-147.8028,-1.03,83,75,0.0,US,1728664387
177,crane,31.3974,-102.3501,27.73,22,0,5.42,US,1728650988
178,sassandra,4.95,-6.0833,27.36,72,76,3.56,CI,1728626998
179,kiselevsk,53.99,86.6621,0.61,73,100,3.86,RU,1728606813
180,dorval,45.4473,-73.7533,15.04,62,20,6.69,CA,1728644783
181,canitas de felipe pescador,23.6,-102.7167,18.01,37,5,3.9,MX,1728650786
182,daru,-9.0763,143.2092,25.86,88,91,7.38,PG,1728677121
183,sisimiut,66.9395,-53.6735,3.58,56,5,2.06,GL,1728642100
184,yellowknife,62.456,-114.3525,0.29,100,20,1.03,CA,1728655996
185,grenaa,56.4158,10.8783,10.12,85,81,0.89,DK,1728625231
186,majene,-3.5403,118.9707,25.66,86,100,2.3,ID,1728683114
187,privolzhskiy,51.4,46.0333,8.77,59,17,6.13,RU,1728616383
188,puerto leguizamo,-0.1934,-74.7819,34.85,43,100,0.92,CO,1728643327
189,codrington,-38.2667,141.9667,8.7,78,2,3.45,AU,1728676238
190,bonthe,7.5264,-12.505,24.34,87,100,2.26,SL,1728628617
191,dryden,49.7833,-92.7503,10.16,71,75,4.63,CA,1728649616
192,east end,34.5507,-92.341,25.54,53,3,0.45,US,1728648714
193,buritis,-15.6178,-46.4233,34.45,36,50,1.42,BR,1728636033
194,undurkhaan,47.3194,110.6556,5.68,58,4,3.69,MN,1728687077
195,rumonge,-3.9736,29.4386,20.75,92,100,0.92,BI,1728618204
196,mirnyy,62.5353,113.9611,-9.12,97,37,1.0,RU,1728687671
197,vanderbijlpark,-26.7117,27.838,27.16,15,69,2.12,ZA,1728617815
198,villeta,5.0089,-74.4723,27.55,62,41,2.47,CO,1728643412
199,churapcha,62.0025,132.4325,0.52,100,100,1.02,RU,1728683159
200,vaggeryd,57.4981,14.1484,8.16,73,7,4.43,SE,1728624546
201,williams lake,52.1415,-122.1445,10.76,86,20,1.54,CA,1728656847
202,thinadhoo,0.5333,72.9333,28.42,73,97,7.52,MV,1728607904
203,kavaratti,10.5669,72.642,25.77,89,98,7.65,IN,1728608274
204,saint-philippe,-21.3585,55.7679,20.82,77,84,6.55,RE,1728611319
205,errachidia,31.9275,-4.4285,32.03,18,0,2.06,MA,1728627496
206,muynoq,43.7683,59.0214,15.79,53,89,4.31,UZ,1728612796
207,nemuro,43.3236,145.575,9.45,75,27,5.13,JP,1728678454
208,al burayqah,30.4062,19.5739,28.2,63,35,3.56,LY,1728621674
209,bria,6.5423,21.9863,24.94,85,37,1.05,CF,1728620310
210,yazihan,38.5947,38.18,20.15,40,40,1.03,TR,1728617547
211,tofol,5.3248,163.0078,28.37,75,59,5.29,FM,1728672824
212,lobujya,27.95,86.8167,-6.84,39,0,2.24,NP,1728605438
213,dunedin,-45.8742,170.5036,9.33,77,71,2.16,NZ,1728668927
214,nelson,-41.2833,173.2833,7.38,85,2,2.24,NZ,1728668558
215,chernyshevskiy,63.0128,112.4714,-6.64,83,87,1.4,RU,1728688096
216,santa ana,33.7456,-117.8678,26.06,51,35,0.67,US,1728654809
217,qarchi gak,37.04,66.7889,25.97,19,84,3.59,AF,1728610607
218,laramie,41.3114,-105.5911,15.05,31,0,3.6,US,1728652208
219,ain sefra,32.75,-0.5833,27.8,27,0,1.38,DZ,1728626606
220,ribeira grande,38.5167,-28.7,20.43,49,40,6.69,PT,1728633606
221,chornobay,49.6708,32.3239,19.42,63,55,4.24,UA,1728619559
222,immokalee,26.4187,-81.4173,27.19,69,92,6.58,US,1728645773
223,dolores,-36.3132,-57.6792,26.67,41,1,4.62,AR,1728637893
224,fale old settlement,-9.3852,-171.2468,27.79,77,28,7.04,TK,1728752554
225,laurel,39.0993,-76.8483,18.68,56,0,3.6,US,1728645196
226,missoula,47.0166,-113.8009,2.22,49,99,1.24,US,1728654496
227,bamboo flat,11.7,92.7167,27.05,83,40,1.03,IN,1728603490
228,manggar,-2.8833,108.2667,28.17,82,96,2.71,ID,1728599323
229,sokol,59.4617,40.1206,5.76,80,81,6.2,RU,1728618501
230,chonchi,-42.6128,-73.8092,11.18,69,100,3.74,CL,1728641410
231,jamestown,42.097,-79.2353,17.79,55,0,3.6,US,1728645917
232,malango,-2.9627,119.9001,19.25,97,73,1.02,ID,1728682909
233,binzhou,37.3667,118.0167,16.22,32,81,2.48,CN,1728684774
234,lubumbashi,-11.6609,27.4794,25.79,20,6,1.64,CD,1728618434
235,carnarvon,-24.8667,113.6333,21.12,86,0,7.83,AU,1728683652
236,luwuk,-0.9516,122.7875,23.2,86,52,1.62,ID,1728682280
237,mukachevo,48.4419,22.7179,13.22,91,100,2.86,UA,1728621787
238,marsh harbour,26.5412,-77.0636,27.1,73,18,8.69,BS,1728644732
239,rengasdengklok,-6.1592,107.2981,28.31,72,50,1.6,ID,1728599457
240,shambu,9.5667,37.1,11.65,91,86,0.2,ET,1728616774
241,port elizabeth,-33.918,25.5701,17.95,87,0,3.09,ZA,1728618049
242,stiens,53.2623,5.7577,12.21,63,7,4.63,NL,1728626198
243,tual,-5.6667,132.75,27.92,81,100,6.76,ID,1728679740
244,nyurba,63.2842,118.3319,-9.52,96,29,1.8,RU,1728686725
245,tvoroyri,61.5556,-6.8111,5.03,54,98,6.13,FO,1728630023
246,anadyr,64.75,177.4833,-6.72,85,75,1.0,RU,1728672719
247,macomb,40.4592,-90.6718,23.97,41,0,2.24,US,1728648582
248,wattegama,6.7989,81.4808,22.94,95,100,2.89,LK,1728606040
249,flying fish cove,-10.4217,105.6791,25.82,88,100,5.14,CX,1728599713
250,tucurui,-3.7661,-49.6725,39.18,26,47,1.68,BR,1728637193
251,melekeok village,7.4957,134.6367,25.31,94,40,0.0,PW,1728679700
252,miles city,46.4083,-105.8406,13.54,54,0,6.69,US,1728652547
253,santa rosa,14.3122,121.1114,27.99,97,5,1.38,PH,1728683163
254,hassi messaoud,31.6804,6.0729,34.92,24,0,2.57,DZ,1728624965
255,arvin,35.2091,-118.8284,26.15,53,100,0.82,US,1728655102
256,kalevala,65.2,31.1667,11.73,89,100,5.42,RU,1728621396
257,vilyuchinsk,52.9306,158.4028,5.15,81,100,7.63,RU,1728676000
258,haiku-pauwela,20.9219,-156.3051,22.92,78,0,2.57,US,1728663559
259,carbonear,47.7332,-53.2148,12.78,75,11,7.04,CA,1728639985
260,la passe,45.5549,-0.8967,18.03,66,87,4.14,FR,1728627287
261,geraldton,-28.7667,114.6,20.23,94,100,3.09,AU,1728683259
262,colesberg,-30.72,25.0972,30.1,8,42,6.49,ZA,1728618306
263,yangiobod,41.1192,70.0941,12.1,69,35,2.46,UZ,1728610002
264,sept-iles,50.2001,-66.3821,11.24,61,75,9.26,CA,1728643309
265,punta arenas,-53.15,-70.9167,8.06,66,75,9.26,CL,1728639919
266,arraial do cabo,-22.9661,-42.0278,23.98,83,75,12.86,BR,1728634717
267,san patricio,28.017,-97.5169,28.97,44,0,3.36,US,1728649697
268,mangai,-4.05,19.5333,25.58,72,83,0.66,CD,1728620579
269,mugia,43.1041,-9.2179,19.39,83,100,11.97,ES,1728629152
270,kingston,17.997,-76.7936,33.42,66,20,3.09,JM,1728644375
271,hilo,19.7297,-155.09,21.73,87,100,1.54,US,1728663227
272,port blair,11.6667,92.75,27.02,83,40,1.03,IN,1728603481
273,harstad,68.799,16.5293,3.12,88,98,6.71,NO,1728625578
274,misratah,32.3754,15.0925,26.16,74,0,7.17,LY,1728622827
275,namtsy,62.7161,129.6658,-1.58,92,100,3.93,RU,1728683920
276,jining,35.405,116.5814,19.45,32,100,2.37,CN,1728685030
277,macau,22.2006,113.5461,27.06,74,40,5.66,MO,1728685244
278,forster,-32.1667,152.5167,12.43,97,16,3.59,AU,1728674014
279,ingeniero guillermo n. juarez,-23.9,-61.85,27.69,41,0,1.56,AR,1728639436
280,sur,22.5667,59.5289,28.69,60,5,1.16,OM,1728611802
281,tondano,1.3038,124.9112,20.05,89,100,0.74,ID,1728681841
282,itamaraca,-7.7478,-34.8256,28.05,60,99,5.72,BR,1728633506
283,dubrovnik,42.6481,18.0922,21.8,73,0,3.6,HR,1728622569
284,dudinka,69.4058,86.1778,-8.47,95,97,1.16,RU,1728608950
285,bontang,0.1333,117.5,27.51,77,83,0.49,ID,1728683582
286,montagu,-40.7667,144.9667,9.6,61,81,5.53,AU,1728675377
287,ostersund,63.1792,14.6357,3.25,64,0,1.54,SE,1728625076
288,rouissat,31.9243,5.3502,34.04,26,0,5.14,DZ,1728625148
289,altay,47.8667,88.1167,11.25,36,99,3.16,CN,1728692526
290,tabou,4.423,-7.3528,27.34,73,50,3.96,CI,1728627287
291,cabedelo,-6.9811,-34.8339,30.37,58,100,7.36,BR,1728633532
292,gao,16.6362,1.637,39.11,11,71,2.88,ML,1728625505
293,zaragoza,41.6561,-0.8773,22.25,42,0,4.63,ES,1728627075
294,pandan,14.0453,124.1694,26.67,89,98,2.18,PH,1728682420
295,keminmaa,65.8596,24.8228,5.87,81,100,4.12,FI,1728623028
296,emerald,-23.5333,148.1667,17.97,80,3,5.36,AU,1728675422
297,shanwei,22.782,115.3475,24.21,74,35,6.55,CN,1728684832
298,brooks,50.5834,-111.8851,6.69,75,22,1.03,CA,1728654269
299,pangody,65.85,74.4859,-3.2,90,88,3.33,RU,1728611081
300,llanes,43.4198,-4.7549,18.53,80,99,2.22,ES,1728628097
301,talcahuano,-36.7167,-73.1167,13.82,88,75,5.14,CL,1728641574
302,preobrazheniye,42.9019,133.9064,12.24,92,0,2.11,RU,1728681234
303,bathsheba,13.2167,-59.5167,32.34,66,40,6.69,BB,1728640075
304,port moresby,-9.4431,147.1797,25.68,89,100,1.54,PG,1728676156
305,saipan,15.1355,145.701,27.39,83,0,2.57,MP,1728677287
306,weining,26.85,104.2333,10.5,99,100,1.06,CN,1728687648
307,chebba,35.2372,11.115,23.99,65,78,5.39,TN,1728623899
308,brisas de zicatela,15.8369,-97.0419,30.29,54,20,3.09,MX,1728649165
309,nanma,36.1817,118.1583,15.33,38,84,1.18,CN,1728684686
310,yangjiang,21.85,111.9667,23.47,84,12,2.78,CN,1728685611
311,alice springs,-23.7,133.8833,22.75,23,100,3.6,AU,1728678842
312,broken hill,-31.95,141.4333,14.92,38,100,6.71,AU,1728676682
313,tucumcari,35.1717,-103.725,20.91,30,0,3.6,US,1728651474
314,serdar,38.9764,56.2757,19.61,36,98,2.48,TM,1728613219
315,polyarnyy,69.1989,33.4478,7.25,83,100,11.25,RU,1728621594
316,valle de la pascua,9.2155,-66.0073,32.89,51,79,3.06,VE,1728641509
317,hamilton,39.1834,-84.5333,20.97,52,0,3.09,US,1728647046
318,taltal,-25.4,-70.4833,19.71,62,9,3.01,CL,1728641448
319,tulun,54.5611,100.5792,-3.68,70,85,1.92,RU,1728690029
320,ngaoundere,7.3167,13.5833,22.33,86,98,1.23,CM,1728622350
321,deniliquin,-35.5333,144.9667,8.7,78,0,5.73,AU,1728675662
322,usinsk,65.9939,57.5281,-4.27,82,100,6.03,RU,1728615184
323,usogorsk,63.4106,48.6872,0.78,48,100,5.84,RU,1728616919
324,brokopondo,4.75,-55.1667,30.23,63,100,1.08,SR,1728638771
325,amga,60.8953,131.9608,0.67,100,100,1.62,RU,1728683132
326,nova vicosa,-17.8919,-39.3719,28.26,62,82,5.27,BR,1728634263
327,ad dawadimi,24.5077,44.3924,30.64,13,3,4.14,SA,1728615501
328,dokkum,53.3222,5.997,12.21,65,7,4.63,NL,1728626146
329,palmer,42.1584,-72.3287,17.9,41,20,4.63,US,1728644262
330,morrope,-6.5417,-80.0111,23.39,64,85,4.92,PE,1728644385
331,shimanovsk,52.0,127.7,2.22,80,34,3.32,RU,1728683305
332,iskateley,67.6803,53.1512,-0.56,58,100,11.43,RU,1728616539
333,nova sintra,14.8667,-24.7167,28.17,78,98,5.62,CV,1728631774
334,pikeville,37.4793,-82.5188,17.09,68,0,1.34,US,1728646483
335,barra do bugres,-15.0725,-57.1811,39.31,24,94,3.41,BR,1728638632
336,pont rouge,48.8833,-72.0825,10.11,68,92,5.08,CA,1728644591
337,yuzhno-kurilsk,44.0306,145.8556,10.59,69,96,7.97,RU,1728678426
338,karratha,-20.7377,116.8463,26.32,66,15,4.75,AU,1728683041
339,redkino,56.6475,36.2967,13.29,71,71,5.22,RU,1728619143
340,lompoc,34.6391,-120.4579,13.4,100,100,2.06,US,1728655469
341,port douglas,-16.4833,145.4667,24.32,75,83,5.61,AU,1728676330
342,devils lake,48.1128,-98.8651,11.08,70,0,3.09,US,1728650976
343,guacara,10.2261,-67.877,30.92,48,54,2.57,VE,1728641989
344,mangrol,21.1167,70.1167,25.51,77,100,5.74,IN,1728609212
345,norilsk,69.3535,88.2027,-11.82,95,78,1.47,RU,1728608451
346,mil'kovo,55.6078,37.7956,12.97,64,6,5.31,RU,1728618691
347,vadso,70.0744,29.7487,8.09,87,75,6.69,NO,1728622687
348,gadzhiyevo,69.2551,33.3362,7.71,82,100,11.79,RU,1728621633
349,siavonga,-16.5382,28.7088,28.55,32,4,0.69,ZM,1728617979
350,tonghae,37.5439,129.1069,15.07,75,0,2.9,KR,1728682119
351,timimoun,29.2639,0.231,36.21,11,0,2.06,DZ,1728626275
352,xichang,27.8964,102.2634,15.15,90,100,1.41,CN,1728688160
353,ginir,7.1333,40.7,15.41,85,78,3.22,ET,1728615836
354,osmancik,40.9782,34.8047,21.96,44,5,2.24,TR,1728618471
355,roma,43.2128,-75.4557,14.27,76,75,2.68,US,1728645068
356,tokar,18.4254,37.729,31.07,63,6,4.19,SD,1728616899
357,hastings,50.8552,0.5729,12.86,23,10,1.98,GB,1728627268
358,rock springs,41.5875,-109.2029,14.69,24,0,1.54,US,1728653089
359,palompon,11.0508,124.3843,26.37,86,97,2.43,PH,1728682273
360,walvis bay,-22.9575,14.5053,20.53,64,0,6.69,NA,1728621158
361,colonia,50.9333,6.95,14.42,73,0,1.54,DE,1728625741
362,tamandare,-8.7597,-35.1047,27.86,59,100,5.78,BR,1728633541
363,hotan,37.0997,79.9269,18.47,29,0,2.21,CN,1728693909
364,port lincoln,-34.7333,135.8667,12.99,77,100,7.36,AU,1728677884
365,kolwezi,-10.7148,25.4667,25.87,16,34,2.33,CD,1728618947
366,happy valley-goose bay,53.3168,-60.3315,7.17,100,100,3.09,CA,1728642084
367,ancud,-41.8697,-73.8203,9.08,81,100,6.09,CL,1728641458
368,quezon,7.7303,125.0989,21.94,97,82,1.23,PH,1728681996
369,rawlins,41.7911,-107.2387,13.53,30,20,3.09,US,1728652628
370,fayroz koh,34.5195,65.2509,12.68,28,0,1.56,AF,1728610869
371,urangan,-25.3,152.9,20.19,73,0,2.99,AU,1728674217
372,bitlis,38.5,42.25,14.53,31,100,3.02,TR,1728616566
373,tchibanga,-2.85,11.0333,25.37,89,78,2.88,GA,1728622655
374,tura,25.5198,90.2201,22.37,89,0,1.54,IN,1728604534
375,luau,-10.7073,22.2247,31.22,11,3,2.9,AO,1728619725
376,andalgala,-27.5819,-66.3165,24.64,34,0,3.34,AR,1728640361
377,cannonvale,-20.2833,148.7,22.66,72,39,7.81,AU,1728675417
378,kosong,38.3788,128.4676,15.31,74,0,3.59,KR,1728682311
379,kachug,53.9606,105.8817,-4.2,88,44,0.6,RU,1728688704
380,leava,-14.3,-178.1667,26.78,83,63,4.37,WF,1728754043
381,la manga del mar menor,37.6413,-0.7165,23.48,70,0,3.09,ES,1728626845
382,badr hunayn,23.7829,38.7905,30.24,47,3,1.73,SA,1728616821
383,lewiston orchards,46.3804,-116.9754,12.71,63,0,0.0,US,1728655220
384,ardakan,32.31,54.0175,27.52,13,1,1.5,IR,1728613478
385,san blas,21.5167,-105.2667,29.09,77,5,0.96,MX,1728651327
386,chaplygin,53.2432,39.9629,11.88,67,4,5.14,RU,1728617977
387,puerto maldonado,-12.6,-69.1833,32.22,55,75,4.12,PE,1728641593
388,krupki,54.3178,29.1358,13.23,98,100,2.18,BY,1728620664
389,abu jibeha,11.4562,31.2285,27.29,59,99,2.06,SD,1728618241
390,rabo de peixe,37.8,-25.5833,20.73,99,20,8.23,PT,1728632824
391,santo antonio,-6.3106,-35.4789,33.45,34,100,8.68,BR,1728633708
392,onega,63.9061,38.1404,7.35,88,100,7.81,RU,1728619525
393,tamanrasset,22.785,5.5228,30.95,18,40,6.69,DZ,1728624774
394,vila franca do campo,37.7167,-25.4333,21.23,99,92,7.68,PT,1728632785
395,eyl,7.9803,49.8164,29.01,52,55,7.71,SO,1728613674
396,camayenne,9.535,-13.6878,29.05,79,75,6.17,GN,1728628962
397,bongouanou,6.6486,-4.1992,26.55,91,42,1.42,CI,1728626597
398,al kharj,24.155,47.3346,33.32,16,0,4.45,SA,1728614783
399,mossel bay,-34.1831,22.146,18.96,73,59,3.56,ZA,1728618857
400,eregli,37.5133,34.0467,21.86,36,1,2.88,TR,1728618491
401,angaur state,6.906,134.13,29.18,69,6,2.21,PW,1728679803
402,mana,5.6592,-53.7767,28.32,80,100,3.11,GF,1728638465
403,homer,59.6425,-151.5483,5.94,77,100,6.17,US,1728664597
404,constantia,44.1833,28.65,20.39,83,84,5.21,RO,1728620114
405,frolovo,49.7713,43.6622,10.63,60,22,3.97,RU,1728616841
406,argostolion,38.1811,20.489,25.04,83,20,0.0,GR,1728621777
407,mitu,1.1983,-70.1733,31.43,56,100,1.16,CO,1728642264
408,lospalos,-8.5186,127.0025,21.36,96,76,2.0,TL,1728681027
409,korla,41.7597,86.1469,17.86,35,0,3.08,CN,1728692645
410,siran,40.1894,39.1267,16.86,47,100,0.95,TR,1728617395
411,lebu,-37.6167,-73.65,12.85,78,100,4.55,CL,1728641656
412,belford roxo,-22.7642,-43.3994,28.99,58,75,3.6,BR,1728635053
413,asipovichy,53.2933,28.6422,13.52,98,100,1.89,BY,1728620702
414,prince rupert,54.3161,-130.3201,7.83,81,98,7.72,CA,1728658984
415,villa gesell,-37.2639,-56.973,22.3,55,1,4.88,AR,1728637675
416,nago,26.5881,127.9761,23.62,79,0,2.39,JP,1728681938
417,baoying,33.2292,119.3092,18.03,75,99,3.04,CN,1728684281
418,praia da vitoria,38.7333,-27.0667,20.14,68,40,9.49,PT,1728633223
419,verkhotur'ye,58.8627,60.8054,-3.43,75,7,3.15,RU,1728613466
420,vila real de santo antonio,37.195,-7.4177,20.75,91,100,5.52,PT,1728628435
421,mar del plata,-38.0023,-57.5575,21.64,66,6,1.79,AR,1728637777
422,awjilah,29.1081,21.2869,35.21,14,0,4.56,LY,1728621214
423,mogadishu,2.0371,45.3438,25.83,87,23,8.62,SO,1728614569
424,bengkulu,-3.8004,102.2655,25.41,92,95,2.4,ID,1728600736
425,falesti,47.5736,27.7092,18.26,72,92,8.72,MD,1728620534
426,strezhevoy,60.7333,77.5889,-2.67,75,100,4.24,RU,1728609634
427,hillsborough,37.5741,-122.3794,15.59,88,40,0.89,US,1728656060
428,vorgashor,67.5833,63.95,-8.36,95,55,3.14,RU,1728613922
429,gangi,37.7957,14.2044,21.02,71,94,4.0,IT,1728623269
430,cold lake,54.4502,-110.2017,0.97,93,100,1.54,CA,1728654160
431,port macquarie,-31.4333,152.9167,14.48,98,25,1.34,AU,1728673952
432,bechar,31.6167,-2.2167,32.18,19,0,0.0,DZ,1728626953
433,victoria,22.2855,114.1577,27.36,75,92,3.58,HK,1728685100
434,kralendijk,12.15,-68.2667,31.99,66,20,7.72,BQ,1728642142
435,alaghsas,17.0187,8.0168,38.94,8,0,3.6,NE,1728623986
436,gnesta,59.0475,17.3119,5.96,82,65,2.58,SE,1728623940
437,jinchang,38.4953,102.1739,14.43,43,100,1.56,CN,1728688632
438,akureyri,65.6835,-18.0878,-3.04,74,20,2.06,IS,1728633321
439,aleksandrov,56.4,38.71,9.34,82,13,4.98,RU,1728618541
440,port alberni,49.2413,-124.8028,9.41,72,100,1.24,CA,1728657281
441,chahal guatemala,15.75,-89.5667,26.71,62,89,1.96,GT,1728647368
442,chibougamau,49.9168,-74.3659,9.79,81,40,2.57,CA,1728645208
443,san rafael del yuma,18.4299,-68.6739,32.11,52,7,4.11,DO,1728642440
444,kone,-21.0595,164.8658,20.66,80,53,1.49,NC,1728671511
445,macapa,0.0389,-51.0664,33.99,62,40,7.2,BR,1728637644
446,ola,59.5833,151.2833,0.69,77,100,3.08,RU,1728678334
447,irymple,-34.25,142.1667,11.16,67,49,5.01,AU,1728676397
448,barranca,-10.75,-77.7667,19.11,74,75,3.9,PE,1728643713
449,huarmey,-10.0681,-78.1522,20.25,76,66,3.82,PE,1728643827
450,nurabad,34.0734,47.9725,16.42,18,0,2.1,IR,1728615000
451,ephraim,39.3597,-111.5863,19.34,32,41,3.23,US,1728653552
452,puerto ayacucho,5.6639,-67.6236,32.48,59,85,1.41,VE,1728641788
453,rio grande,-32.035,-52.0986,19.93,91,100,3.68,BR,1728636759
454,hammerfest,70.6634,23.6821,5.25,87,75,5.14,NO,1728624295
455,bikenibeu village,1.3673,173.1241,26.98,78,20,4.12,KI,1728670273
456,juneau,58.3019,-134.4197,6.0,95,100,4.63,US,1728660337
457,zaozersk,69.4005,32.4476,6.55,90,100,11.86,RU,1728621880
458,ar rass,25.8694,43.4973,30.24,14,3,3.73,SA,1728615764
459,houghton,47.1219,-88.569,20.41,69,0,12.35,US,1728648441
460,nagqu,31.5,92.0,3.51,37,100,0.74,CN,1728690767
461,neiafu,-18.65,-173.9833,24.38,94,75,6.17,TO,1728752880
462,wainwright,52.839,-110.8572,7.12,46,100,3.98,CA,1728654188
463,araguaina,-7.1911,-48.2072,32.77,37,71,3.83,BR,1728636734
464,tazacorte,28.629,-17.9293,24.54,90,40,3.58,ES,1728630612
465,marshall,34.3834,-86.3333,22.99,48,0,3.6,US,1728647264
466,ji'an,27.1172,114.9793,20.25,53,30,1.39,CN,1728685078
467,coquimbo,-29.9533,-71.3436,18.85,68,20,6.17,CL,1728641466
468,lagkadas,40.75,23.0667,24.3,68,71,0.66,GR,1728621279
469,kon tum,14.35,108.0,20.18,96,70,0.99,VN,1728599903
470,abepura,-2.6333,140.5833,25.45,89,20,1.03,ID,1728677957
471,catriel,-37.8791,-67.7956,22.26,23,28,8.11,AR,1728640238
472,freetown,8.484,-13.2299,23.84,88,75,6.17,SL,1728628820
473,suntar,62.1444,117.6319,-9.11,96,44,0.63,RU,1728686736
474,wynyard,-41.0,145.7167,7.45,74,72,3.62,AU,1728675183
475,argo,37.6333,22.7333,27.69,43,20,1.49,GR,1728621213
476,vorkuta,67.5,64.0,-8.31,96,51,2.83,RU,1728613894
477,papao,-17.75,-149.55,23.82,81,100,6.91,PF,1728660697
478,kemri,28.8167,79.2167,22.43,60,40,2.17,IN,1728607294
479,newman,37.3138,-121.0208,18.92,58,2,1.34,US,1728655722
480,kismayo,-0.3582,42.5454,25.24,86,11,7.14,SO,1728615169
481,ajdabiya,30.7554,20.2263,29.51,44,2,3.11,LY,1728621531
482,egilsstadir,65.2653,-14.3948,0.95,60,40,7.2,IS,1728632365
483,dubai,25.2582,55.3047,32.96,46,0,3.09,AE,1728612908
484,mahibadhoo,3.7833,72.9667,26.9,79,100,9.24,MV,1728607993
485,princeville,45.7668,-61.2985,10.86,81,100,8.75,CA,1728641809
486,anton lizardo,19.05,-95.9833,29.12,78,50,4.27,MX,1728649016
487,cooma,-36.2333,149.1333,4.48,94,81,2.33,AU,1728674627
488,hailey,43.5196,-114.3153,10.92,40,0,5.14,US,1728654419
489,cartagena,10.3997,-75.5144,30.79,70,75,3.09,CO,1728643827
490,monte santo,-10.4378,-39.3328,34.04,23,79,4.15,BR,1728634502
491,labasa,-16.4167,179.3833,23.48,89,80,1.53,FJ,1728668196
492,selizharovo,56.8519,33.4487,13.26,82,92,5.47,RU,1728619846
493,gadarwara,22.9167,78.7833,25.82,62,79,1.63,IN,1728607191
494,fortuna,40.5982,-124.1573,11.66,100,0,1.54,US,1728656631
495,holualoa,19.6228,-155.9522,22.91,78,0,3.09,US,1728663430
496,puerto san jose,13.9256,-90.8244,27.2,74,98,1.28,GT,1728647612
497,lorengau,-2.0226,147.2712,27.39,79,31,3.42,PG,1728676371
498,balaipungut,1.05,101.2833,25.01,93,100,0.51,ID,1728601116
499,ganye,8.4333,12.0667,27.83,78,19,1.46,NG,1728622747
500,pec,42.6591,20.2883,17.9,79,100,1.89,XK,1728622042
501,kirensk,57.7853,108.1119,-4.93,98,57,1.42,RU,1728688520
502,toliara,-23.35,43.6667,24.39,77,66,3.35,MG,1728614149
503,pisco,-13.7,-76.2167,18.34,82,40,3.6,PE,1728643244
504,itacoatiara,-3.1431,-58.4442,39.95,20,5,2.13,BR,1728639316
505,mandalgovi,45.7625,106.2708,7.56,54,0,2.8,MN,1728688035
506,boa vista,2.8197,-60.6733,33.99,46,40,4.63,BR,1728640033
507,hanceville,34.0607,-86.7675,23.98,43,0,2.15,US,1728647355
508,hobyo,5.3505,48.5268,26.3,80,96,8.61,SO,1728613905
509,vernon,50.2581,-119.2691,6.73,62,100,0.51,CA,1728656020
510,ghat,24.9647,10.1728,37.09,12,22,2.79,LY,1728623733
511,subang jaya,3.0568,101.5855,26.97,89,20,1.54,MY,1728687493
512,lao cai,22.4833,103.95,23.01,87,70,0.82,VN,1728601135
513,tadine,-21.55,167.8833,19.7,68,19,5.47,NC,1728670769
514,uba,-21.12,-42.9428,29.56,54,92,3.91,BR,1728635005
515,nantucket,41.2835,-70.0995,14.06,54,0,7.72,US,1728643682
516,ceres,37.5949,-120.9577,20.62,63,0,1.54,US,1728655720
517,mejit,10.2753,170.8646,27.2,78,100,5.93,MH,1728671093
518,sao vicente,-23.9631,-46.3919,27.77,33,75,2.68,BR,1728635726
519,busan,35.1028,129.0403,14.99,88,0,2.06,KR,1728682024
520,chamical,-30.36,-66.314,25.03,44,0,3.06,AR,1728640243
521,kaa-khem,51.6833,94.7333,8.15,68,100,1.77,RU,1728604701
522,matoury,4.8483,-52.3317,32.98,62,20,6.17,GF,1728638093
523,sechura,-5.5569,-80.8222,23.45,66,89,3.62,PE,1728644611
524,cowra,-33.8333,148.6833,6.72,69,54,1.36,AU,1728674855
525,ta`u,-14.2336,-169.5144,26.64,80,24,8.83,AS,1728665608
526,vlore,40.4667,19.4897,22.83,77,30,2.73,AL,1728622124
527,mokhsogollokh,61.4681,128.9203,-1.43,82,100,3.59,RU,1728683935
528,al ghayzah,16.2079,52.176,26.4,72,64,3.38,YE,1728613360
529,meadow lake,34.8014,-106.5436,22.96,21,0,1.66,US,1728652135
530,moyynkum,44.2914,72.9469,12.94,65,34,1.64,KZ,1728609479
531,trairi,-3.2778,-39.2689,30.33,51,70,8.22,BR,1728634711
532,chardon,41.6142,-81.149,17.72,57,10,2.24,US,1728646352
533,sierakowice,54.3461,17.8925,9.35,64,75,5.22,PL,1728623368
534,isangel,-19.55,169.2667,21.84,74,76,5.44,VU,1728670511
535,manta,-0.95,-80.7333,24.88,78,100,3.09,EC,1728644732
536,kenai,60.5544,-151.2583,6.19,76,0,4.63,US,1728664632
537,kui buri,12.0828,99.8543,26.2,84,68,1.24,TH,1728601789
538,ternate,0.8,127.4,26.99,80,69,1.18,ID,1728681228
539,wuwei,37.9281,102.6414,13.77,48,100,3.43,CN,1728688492
540,pogar,52.554,33.2591,17.97,64,93,3.97,RU,1728619536
541,tanjung selor,2.8372,117.3642,24.05,96,27,0.6,ID,1728683699
542,suphan buri,14.4742,100.1222,25.3,81,87,2.93,TH,1728601798
543,hofors,60.5457,16.2867,4.68,72,15,1.63,SE,1728624350
544,bauru,-22.3147,-49.0606,28.52,65,40,3.6,BR,1728636428
545,sake,-1.5736,29.045,17.62,96,100,0.35,CD,1728618372
546,shar'ya,58.3686,45.5144,2.52,58,100,4.51,RU,1728617092
547,serro,-18.6047,-43.3794,27.76,57,95,2.3,BR,1728635199
548,mount gambier,-37.8333,140.7667,6.37,92,3,1.93,AU,1728676549
549,port augusta,-32.5,137.7667,13.58,58,100,3.47,AU,1728677536
550,morshyn,49.1565,23.8723,11.08,94,100,3.39,UA,1728621555
551,midvagur,62.0511,-7.1939,3.46,70,75,4.12,FO,1728630177
552,kissidougou,9.1848,-10.0999,24.09,91,98,0.94,GN,1728628090
553,dourbali,11.8091,15.8632,35.46,34,88,1.46,TD,1728621939
554,dyurtyuli,55.4911,54.8688,0.31,51,22,4.92,RU,1728614577
555,diamantina,-18.2494,-43.6003,25.44,55,75,3.66,BR,1728635265
556,labytnangi,66.6572,66.4183,-7.57,90,40,1.68,RU,1728613159
557,island harbour,50.724,-1.2758,13.32,70,86,2.24,GB,1728627703
558,tweed heads,-28.1817,153.547,15.1,100,44,2.06,AU,1728673944
559,dalhart,36.0595,-102.5133,28.6,22,0,0.0,US,1728651221
560,ubari,26.5921,12.7805,37.63,11,43,2.05,LY,1728623164
561,acarau,-2.8856,-40.12,31.25,54,37,9.88,BR,1728634928
562,muncar,-8.4333,114.3333,24.36,95,100,0.69,ID,1728597699
563,armacao de buzios,-22.7469,-41.8817,24.09,85,97,10.42,BR,1728634690
564,grand baie,-20.0182,57.5802,23.03,76,100,2.68,MU,1728610933
565,yugorsk,61.3133,63.3319,-3.21,73,2,2.21,RU,1728613129
566,cerritos,33.8583,-118.0648,24.45,93,100,0.0,US,1728654861
567,wulingyuan,29.3494,110.5441,16.25,70,99,1.79,CN,1728686228
568,tatarsk,55.219,75.9828,-1.69,69,100,9.29,RU,1728609480
569,panama city beach,30.1766,-85.8055,24.49,45,0,4.63,US,1728646967
570,naze,28.3667,129.4833,20.51,74,46,2.66,JP,1728681643
571,tanout,14.9709,8.8879,36.64,11,4,5.59,NE,1728623712
572,christchurch,-43.5333,172.6333,5.79,79,41,1.77,NZ,1728668574
573,ciudad guayana,8.3533,-62.6528,35.21,42,76,3.19,VE,1728640677
574,parapat,2.663,98.9349,20.41,95,99,0.77,ID,1728601728
575,noshiro,40.2039,140.0242,12.14,78,0,2.38,JP,1728679625
576,saudarkrokur,65.7461,-19.6394,0.17,67,100,4.87,IS,1728633704
577,praia,14.9215,-23.5087,29.3,70,75,5.66,CV,1728631486
